test/data/gpredict-passes-summary.txt

Upcoming passes for AO-27
Observer: sample, Copenhagen, Denmark
LAT:55,62 LON:12,65
------------------------------------------------------------------------------------------------------------------------
 AOS                  TCA                  LOS                  Duration  Max El  AOS Az  Max El Az  LOS Az  Orbit  Vis
------------------------------------------------------------------------------------------------------------------------
 2013/07/21 23:57:26  2013/07/22 00:04:00  2013/07/22 00:10:34  00:13:07   17,63   24,78      85,62  147,42   3359  VDE
 2013/07/22 01:36:47  2013/07/22 01:44:20  2013/07/22 01:51:53  00:15:06   86,13   15,95      85,68  197,50   3360  V-E
 2013/07/22 03:16:37  2013/07/22 03:23:21  2013/07/22 03:30:05  00:13:27   22,81   11,42     308,21  243,97   3361  -D-
 2013/07/22 04:56:29  2013/07/22 05:01:10  2013/07/22 05:05:50  00:09:21    6,56    9,73     330,65  291,34   3362  -D-
 2013/07/22 09:46:10  2013/07/22 09:52:16  2013/07/22 09:58:22  00:12:11   14,54   98,42      43,91  349,59   3365  -D-
 2013/07/22 11:23:21  2013/07/22 11:30:48  2013/07/22 11:38:15  00:14:54   53,37  144,90      64,70  346,09   3366  -D-
 2013/07/22 13:03:22  2013/07/22 13:10:37  2013/07/22 13:17:52  00:14:30   32,21  192,44     266,38  339,42   3367  -D-
 2013/07/22 23:29:07  2013/07/22 23:34:52  2013/07/22 23:40:37  00:11:29   10,56   29,28      79,62  130,53   3373  V-E
 2013/07/23 01:08:08  2013/07/23 01:15:37  2013/07/23 01:23:06  00:14:58   54,78   17,86      98,85  183,83   3374  V-E
 2013/07/23 02:47:53  2013/07/23 02:55:00  2013/07/23 03:02:07  00:14:13   32,95   12,44     302,34  230,59   3375  -DE
 2013/07/23 04:27:47  2013/07/23 04:33:08  2013/07/23 04:38:30  00:10:42    9,56    9,82     323,90  277,63   3376  -D-
 2013/07/23 09:18:39  2013/07/23 09:24:08  2013/07/23 09:29:38  00:10:58   10,22   84,78      37,40  350,10   3379  -D-
 2013/07/23 10:55:08  2013/07/23 11:02:20  2013/07/23 11:09:32  00:14:23   35,25  131,62      59,12  347,36   3380  -D-
 2013/07/23 12:34:16  2013/07/23 12:41:46  2013/07/23 12:49:17  00:15:00   51,03  178,29     260,90  341,81   3381  -D-
 2013/07/23 14:16:57  2013/07/23 14:22:35  2013/07/23 14:28:13  00:11:15    9,75  231,98     281,07  329,95   3382  -D-
 2013/07/23 23:01:07  2013/07/23 23:05:36  2013/07/23 23:10:05  00:08:57    5,20   36,05      73,33  110,87   3387  VD-
 2013/07/24 00:39:31  2013/07/24 00:46:47  2013/07/24 00:54:03  00:14:31   34,35   20,20      93,98  169,71   3388  V-E
 2013/07/24 02:19:10  2013/07/24 02:26:33  2013/07/24 02:33:56  00:14:45   49,59   13,68     297,00  217,26   3389  -DE
 2013/07/24 03:59:04  2013/07/24 04:05:02  2013/07/24 04:11:00  00:11:56   13,63   10,27     317,38  263,95   3390  -D-
 2013/07/24 08:51:18  2013/07/24 08:56:06  2013/07/24 09:00:55  00:09:37    7,04   71,07      30,69  350,33   3393  -D-
 2013/07/24 10:27:08  2013/07/24 10:33:58  2013/07/24 10:40:48  00:13:39   24,28  118,29      53,15  348,42   3394  -D-
 2013/07/24 12:05:27  2013/07/24 12:13:02  2013/07/24 12:20:38  00:15:10   80,87  164,62     258,18  343,78   3395  -D-
 2013/07/24 13:46:56  2013/07/24 13:53:26  2013/07/24 13:59:56  00:12:59   16,51  214,90     274,96  334,63   3396  -D-
 2013/07/25 00:11:00  2013/07/25 00:17:50  2013/07/25 00:24:41  00:13:40   21,91   23,13      88,42  154,85   3402  V-E
 2013/07/25 01:50:27  2013/07/25 01:57:59  2013/07/25 02:05:31  00:15:03   77,11   15,15     295,35  203,90   3403  V-E
 2013/07/25 03:30:19  2013/07/25 03:36:50  2013/07/25 03:43:20  00:13:00   19,28   10,99     311,09  250,38   3404  -D-
 2013/07/25 05:10:09  2013/07/25 05:14:30  2013/07/25 05:18:50  00:08:40    5,42    9,76     333,89  297,86   3405  -D-
 2013/07/25 09:59:21  2013/07/25 10:05:42  2013/07/25 10:12:03  00:12:42   17,11  104,84      46,97  349,30   3408  -D-
 2013/07/25 11:36:53  2013/07/25 11:44:25  2013/07/25 11:51:56  00:15:03   65,81  151,22      67,01  345,41   3409  -D-
 2013/07/25 13:17:21  2013/07/25 13:24:25  2013/07/25 13:31:28  00:14:07   26,03  199,43     269,06  338,06   3410  -D-
 2013/07/25 23:42:36  2013/07/25 23:48:46  2013/07/25 23:54:57  00:12:20   13,62   26,98      82,55  138,79   3416  V-E
 2013/07/26 01:21:47  2013/07/26 01:29:19  2013/07/26 01:36:51  00:15:04   68,53   16,91     100,21  190,36   3417  V-E
 2013/07/26 03:01:35  2013/07/26 03:08:32  2013/07/26 03:15:28  00:13:52   27,54   11,91     305,05  236,94   3418  -D-
 2013/07/26 04:41:28  2013/07/26 04:46:31  2013/07/26 04:51:33  00:10:04    8,00    9,69     327,08  284,18   3419  -D-
 2013/07/26 09:31:45  2013/07/26 09:37:32  2013/07/26 09:43:19  00:11:33   12,08   91,26      40,54  349,92   3422  -D-
 2013/07/26 11:08:34  2013/07/26 11:15:54  2013/07/26 11:23:13  00:14:39   42,64  137,93      61,87  346,80   3423  -D-
 2013/07/26 12:48:07  2013/07/26 12:55:31  2013/07/26 13:02:55  00:14:48   40,85  184,94     263,41  340,73   3424  -D-
 2013/07/26 14:31:28  2013/07/26 14:36:32  2013/07/26 14:41:36  00:10:07    7,13  241,08     284,11  326,96   3425  -D-
 2013/07/26 23:14:25  2013/07/26 23:19:34  2013/07/26 23:24:43  00:10:18    7,56   32,43      76,36  120,68   3430  VD-
 2013/07/27 00:53:09  2013/07/27 01:00:33  2013/07/27 01:07:56  00:14:46   42,72   19,04      96,47  176,48   3431  V-E
 2013/07/27 02:32:51  2013/07/27 02:40:07  2013/07/27 02:47:23  00:14:31   40,56   13,05     299,38  223,59   3432  -DE
 2013/07/27 04:12:46  2013/07/27 04:18:27  2013/07/27 04:24:07  00:11:21   11,52    9,99     320,45  270,47   3433  -D-
 2013/07/27 09:04:20  2013/07/27 09:09:28  2013/07/27 09:14:36  00:10:15    8,41   77,54      33,89  350,30   3436  -D-
 2013/07/27 10:40:28  2013/07/27 10:47:29  2013/07/27 10:54:29  00:14:01   28,83  124,63      56,06  347,97   3437  -D-
 2013/07/27 12:19:10  2013/07/27 12:26:43  2013/07/27 12:34:17  00:15:07   65,32  171,07     258,35  342,88   3438  -D-
 2013/07/27 14:01:12  2013/07/27 14:07:19  2013/07/27 14:13:26  00:12:14   13,02  222,79     277,85  332,60   3439  -D-
 2013/07/28 00:24:35  2013/07/28 00:31:39  2013/07/28 00:38:43  00:14:07   27,10   21,66      91,10  162,01   3445  VDE
 2013/07/28 02:04:08  2013/07/28 02:11:37  2013/07/28 02:19:05  00:14:56   62,51   14,42     294,83  210,26   3446  V-E
 2013/07/28 03:44:02  2013/07/28 03:50:17  2013/07/28 03:56:33  00:12:31   16,33   10,60     314,02  256,82   3447  -D-
 2013/07/28 08:37:02  2013/07/28 08:41:28  2013/07/28 08:45:54  00:08:52    5,70   63,84      27,06  350,30   3450  -D-
