test/data/gpredict-passes-complete.txt

Upcoming passes for AO-27
Observer: sample, Copenhagen, Denmark
LAT:55,62 LON:12,65
------------------------------------------------------------------------------------------------------------------------
 AOS                  TCA                  LOS                  Duration  Max El  AOS Az  Max El Az  LOS Az  Orbit  Vis
------------------------------------------------------------------------------------------------------------------------
 2013/07/21 23:57:26  2013/07/22 00:04:00  2013/07/22 00:10:34  00:13:07   17,63   24,78      85,62  147,42   3359  VDE
 2013/07/22 01:36:47  2013/07/22 01:44:20  2013/07/22 01:51:53  00:15:06   86,13   15,95      85,68  197,50   3360  V-E
 2013/07/22 03:16:37  2013/07/22 03:23:21  2013/07/22 03:30:05  00:13:27   22,81   11,42     308,21  243,97   3361  -D-
 2013/07/22 04:56:29  2013/07/22 05:01:10  2013/07/22 05:05:50  00:09:21    6,56    9,73     330,65  291,34   3362  -D-
 2013/07/22 09:46:10  2013/07/22 09:52:16  2013/07/22 09:58:22  00:12:11   14,54   98,42      43,91  349,59   3365  -D-
 2013/07/22 11:23:21  2013/07/22 11:30:48  2013/07/22 11:38:15  00:14:54   53,37  144,90      64,70  346,09   3366  -D-
 2013/07/22 13:03:22  2013/07/22 13:10:37  2013/07/22 13:17:52  00:14:30   32,21  192,44     266,38  339,42   3367  -D-
 2013/07/22 23:29:07  2013/07/22 23:34:52  2013/07/22 23:40:37  00:11:29   10,56   29,28      79,62  130,53   3373  V-E
 2013/07/23 01:08:08  2013/07/23 01:15:37  2013/07/23 01:23:06  00:14:58   54,78   17,86      98,85  183,83   3374  V-E
 2013/07/23 02:47:53  2013/07/23 02:55:00  2013/07/23 03:02:07  00:14:13   32,95   12,44     302,34  230,59   3375  -DE
 2013/07/23 04:27:47  2013/07/23 04:33:08  2013/07/23 04:38:30  00:10:42    9,56    9,82     323,90  277,63   3376  -D-
 2013/07/23 09:18:39  2013/07/23 09:24:08  2013/07/23 09:29:38  00:10:58   10,22   84,78      37,40  350,10   3379  -D-
 2013/07/23 10:55:08  2013/07/23 11:02:20  2013/07/23 11:09:32  00:14:23   35,25  131,62      59,12  347,36   3380  -D-
 2013/07/23 12:34:16  2013/07/23 12:41:46  2013/07/23 12:49:17  00:15:00   51,03  178,29     260,90  341,81   3381  -D-
 2013/07/23 14:16:57  2013/07/23 14:22:35  2013/07/23 14:28:13  00:11:15    9,75  231,98     281,07  329,95   3382  -D-
 2013/07/23 23:01:07  2013/07/23 23:05:36  2013/07/23 23:10:05  00:08:57    5,20   36,05      73,33  110,87   3387  VD-
 2013/07/24 00:39:31  2013/07/24 00:46:47  2013/07/24 00:54:03  00:14:31   34,35   20,20      93,98  169,71   3388  V-E
 2013/07/24 02:19:10  2013/07/24 02:26:33  2013/07/24 02:33:56  00:14:45   49,59   13,68     297,00  217,26   3389  -DE
 2013/07/24 03:59:04  2013/07/24 04:05:02  2013/07/24 04:11:00  00:11:56   13,63   10,27     317,38  263,95   3390  -D-
 2013/07/24 08:51:18  2013/07/24 08:56:06  2013/07/24 09:00:55  00:09:37    7,04   71,07      30,69  350,33   3393  -D-
 2013/07/24 10:27:08  2013/07/24 10:33:58  2013/07/24 10:40:48  00:13:39   24,28  118,29      53,15  348,42   3394  -D-
 2013/07/24 12:05:27  2013/07/24 12:13:02  2013/07/24 12:20:38  00:15:10   80,87  164,62     258,18  343,78   3395  -D-
 2013/07/24 13:46:56  2013/07/24 13:53:26  2013/07/24 13:59:56  00:12:59   16,51  214,90     274,96  334,63   3396  -D-
 2013/07/25 00:11:00  2013/07/25 00:17:50  2013/07/25 00:24:41  00:13:40   21,91   23,13      88,42  154,85   3402  V-E
 2013/07/25 01:50:27  2013/07/25 01:57:59  2013/07/25 02:05:31  00:15:03   77,11   15,15     295,35  203,90   3403  V-E
 2013/07/25 03:30:19  2013/07/25 03:36:50  2013/07/25 03:43:20  00:13:00   19,28   10,99     311,09  250,38   3404  -D-
 2013/07/25 05:10:09  2013/07/25 05:14:30  2013/07/25 05:18:50  00:08:40    5,42    9,76     333,89  297,86   3405  -D-
 2013/07/25 09:59:21  2013/07/25 10:05:42  2013/07/25 10:12:03  00:12:42   17,11  104,84      46,97  349,30   3408  -D-
 2013/07/25 11:36:53  2013/07/25 11:44:25  2013/07/25 11:51:56  00:15:03   65,81  151,22      67,01  345,41   3409  -D-
 2013/07/25 13:17:21  2013/07/25 13:24:25  2013/07/25 13:31:28  00:14:07   26,03  199,43     269,06  338,06   3410  -D-
 2013/07/25 23:42:36  2013/07/25 23:48:46  2013/07/25 23:54:57  00:12:20   13,62   26,98      82,55  138,79   3416  V-E
 2013/07/26 01:21:47  2013/07/26 01:29:19  2013/07/26 01:36:51  00:15:04   68,53   16,91     100,21  190,36   3417  V-E
 2013/07/26 03:01:35  2013/07/26 03:08:32  2013/07/26 03:15:28  00:13:52   27,54   11,91     305,05  236,94   3418  -D-
 2013/07/26 04:41:28  2013/07/26 04:46:31  2013/07/26 04:51:33  00:10:04    8,00    9,69     327,08  284,18   3419  -D-
 2013/07/26 09:31:45  2013/07/26 09:37:32  2013/07/26 09:43:19  00:11:33   12,08   91,26      40,54  349,92   3422  -D-
 2013/07/26 11:08:34  2013/07/26 11:15:54  2013/07/26 11:23:13  00:14:39   42,64  137,93      61,87  346,80   3423  -D-
 2013/07/26 12:48:07  2013/07/26 12:55:31  2013/07/26 13:02:55  00:14:48   40,85  184,94     263,41  340,73   3424  -D-
 2013/07/26 14:31:28  2013/07/26 14:36:32  2013/07/26 14:41:36  00:10:07    7,13  241,08     284,11  326,96   3425  -D-
 2013/07/26 23:14:25  2013/07/26 23:19:34  2013/07/26 23:24:43  00:10:18    7,56   32,43      76,36  120,68   3430  VD-
 2013/07/27 00:53:09  2013/07/27 01:00:33  2013/07/27 01:07:56  00:14:46   42,72   19,04      96,47  176,48   3431  V-E
 2013/07/27 02:32:51  2013/07/27 02:40:07  2013/07/27 02:47:23  00:14:31   40,56   13,05     299,38  223,59   3432  -DE
 2013/07/27 04:12:46  2013/07/27 04:18:27  2013/07/27 04:24:07  00:11:21   11,52    9,99     320,45  270,47   3433  -D-
 2013/07/27 09:04:20  2013/07/27 09:09:28  2013/07/27 09:14:36  00:10:15    8,41   77,54      33,89  350,30   3436  -D-
 2013/07/27 10:40:28  2013/07/27 10:47:29  2013/07/27 10:54:29  00:14:01   28,83  124,63      56,06  347,97   3437  -D-
 2013/07/27 12:19:10  2013/07/27 12:26:43  2013/07/27 12:34:17  00:15:07   65,32  171,07     258,35  342,88   3438  -D-
 2013/07/27 14:01:12  2013/07/27 14:07:19  2013/07/27 14:13:26  00:12:14   13,02  222,79     277,85  332,60   3439  -D-
 2013/07/28 00:24:35  2013/07/28 00:31:39  2013/07/28 00:38:43  00:14:07   27,10   21,66      91,10  162,01   3445  VDE
 2013/07/28 02:04:08  2013/07/28 02:11:37  2013/07/28 02:19:05  00:14:56   62,51   14,42     294,83  210,26   3446  V-E
 2013/07/28 03:44:02  2013/07/28 03:50:17  2013/07/28 03:56:33  00:12:31   16,33   10,60     314,02  256,82   3447  -D-
 2013/07/28 08:37:02  2013/07/28 08:41:28  2013/07/28 08:45:54  00:08:52    5,70   63,84      27,06  350,30   3450  -D-

 Orbit 3359
----------------------------------------------
 Time                  Az      El  Range Footp
----------------------------------------------
 2013/07/21 23:57:26  24,78  -0,00  3306  6096
 2013/07/21 23:58:05  27,88   1,98  3092  6094
 2013/07/21 23:58:45  31,42   4,03  2885  6092
 2013/07/21 23:59:24  35,49   6,15  2688  6090
 2013/07/22 00:00:04  40,19   8,32  2504  6088
 2013/07/22 00:00:43  45,64  10,50  2335  6086
 2013/07/22 00:01:22  51,94  12,61  2186  6084
 2013/07/22 00:02:02  59,17  14,54  2062  6082
 2013/07/22 00:02:41  67,31  16,14  1968  6079
 2013/07/22 00:03:21  76,23  17,22  1907  6077
 2013/07/22 00:04:00  85,62  17,63  1884  6074
 2013/07/22 00:04:39  95,05  17,30  1900  6072
 2013/07/22 00:05:19 104,07  16,29  1954  6069
 2013/07/22 00:05:58 112,37  14,73  2043  6067
 2013/07/22 00:06:37 119,76  12,80  2162  6064
 2013/07/22 00:07:17 126,20  10,67  2307  6062
 2013/07/22 00:07:56 131,77   8,47  2474  6060
 2013/07/22 00:08:36 136,57   6,26  2657  6058
 2013/07/22 00:09:15 140,71   4,10  2853  6055
 2013/07/22 00:09:54 144,29   2,01  3060  6053

 Orbit 3360
----------------------------------------------
 Time                  Az      El  Range Footp
----------------------------------------------
 2013/07/22 01:36:47  15,95   0,00  3307  6099
 2013/07/22 01:37:32  16,23   2,85  3004  6097
 2013/07/22 01:38:17  16,54   6,03  2702  6096
 2013/07/22 01:39:03  16,87   9,67  2401  6094
 2013/07/22 01:39:48  17,26  13,95  2104  6091
 2013/07/22 01:40:33  17,71  19,18  1813  6089
 2013/07/22 01:41:19  18,30  25,86  1532  6087
 2013/07/22 01:42:04  19,15  34,83  1270  6084
 2013/07/22 01:42:49  20,66  47,42  1040  6081
 2013/07/22 01:43:35  24,67  65,23   870  6079
 2013/07/22 01:44:20  85,68  86,13   800  6076
 2013/07/22 01:45:05 188,16  67,59   855  6073
 2013/07/22 01:45:51 192,87  49,05  1015  6070
 2013/07/22 01:46:36 194,50  35,87  1239  6067
 2013/07/22 01:47:21 195,37  26,52  1498  6065
 2013/07/22 01:48:07 195,95  19,60  1778  6062
 2013/07/22 01:48:52 196,39  14,22  2068  6059
 2013/07/22 01:49:37 196,73   9,83  2365  6057
 2013/07/22 01:50:22 197,02   6,12  2666  6054
 2013/07/22 01:51:08 197,28   2,88  2969  6052

 Orbit 3361
----------------------------------------------
 Time                  Az      El  Range Footp
----------------------------------------------
 2013/07/22 03:16:37  11,42   0,00  3308  6101
 2013/07/22 03:17:17   8,94   2,24  3067  6099
 2013/07/22 03:17:58   6,00   4,61  2833  6098
 2013/07/22 03:18:38   2,49   7,13  2607  6097
 2013/07/22 03:19:19 358,24   9,79  2393  6095
 2013/07/22 03:19:59 353,08  12,56  2194  6093
 2013/07/22 03:20:39 346,78  15,39  2017  6091
 2013/07/22 03:21:20 339,13  18,12  1866  6089
 2013/07/22 03:22:00 330,00  20,50  1750  6087
 2013/07/22 03:22:40 319,53  22,18  1675  6085
 2013/07/22 03:23:21 308,21  22,81  1647  6082
 2013/07/22 03:24:01 296,85  22,24  1670  6080
 2013/07/22 03:24:42 286,27  20,61  1740  6077
 2013/07/22 03:25:22 277,01  18,25  1852  6075
 2013/07/22 03:26:02 269,21  15,51  2000  6072
 2013/07/22 03:26:43 262,78  12,66  2175  6070
 2013/07/22 03:27:23 257,50   9,86  2371  6067
 2013/07/22 03:28:04 253,16   7,18  2583  6065
 2013/07/22 03:28:44 249,55   4,64  2808  6062
 2013/07/22 03:29:24 246,53   2,25  3041  6060

 Orbit 3362
----------------------------------------------
 Time                  Az      El  Range Footp
----------------------------------------------
 2013/07/22 04:56:29   9,73  -0,00  3310  6102
 2013/07/22 04:56:57   6,75   1,02  3197  6101
 2013/07/22 04:57:25   3,54   2,01  3092  6100
 2013/07/22 04:57:53   0,11   2,95  2996  6100
 2013/07/22 04:58:21 356,46   3,81  2910  6099
 2013/07/22 04:58:49 352,57   4,59  2834  6098
 2013/07/22 04:59:17 348,48   5,27  2771  6097
 2013/07/22 04:59:45 344,21   5,82  2721  6096
 2013/07/22 05:00:13 339,78   6,22  2684  6094
 2013/07/22 05:00:41 335,24   6,48  2661  6093
 2013/07/22 05:01:10 330,65   6,56  2653  6092
 2013/07/22 05:01:38 326,05   6,48  2659  6091
 2013/07/22 05:02:06 321,51   6,23  2680  6089
 2013/07/22 05:02:34 317,06   5,83  2715  6088
 2013/07/22 05:03:02 312,77   5,28  2764  6086
 2013/07/22 05:03:30 308,65   4,60  2826  6084
 2013/07/22 05:03:58 304,74   3,82  2900  6083
 2013/07/22 05:04:26 301,05   2,95  2984  6081
 2013/07/22 05:04:54 297,59   2,02  3079  6080
 2013/07/22 05:05:22 294,36   1,03  3183  6078

 Orbit 3365
----------------------------------------------
 Time                  Az      El  Range Footp
----------------------------------------------
 2013/07/22 09:46:10  98,42   0,00  3304  6093
 2013/07/22 09:46:46  95,41   1,81  3110  6094
 2013/07/22 09:47:23  91,98   3,64  2925  6095
 2013/07/22 09:48:00  88,07   5,50  2750  6096
 2013/07/22 09:48:36  83,61   7,36  2589  6097
 2013/07/22 09:49:13  78,53   9,16  2444  6098
 2013/07/22 09:49:49  72,78  10,85  2318  6099
 2013/07/22 09:50:26  66,35  12,34  2214  6100
 2013/07/22 09:51:03  59,29  13,51  2138  6101
 2013/07/22 09:51:39  51,74  14,27  2090  6102
 2013/07/22 09:52:16  43,91  14,54  2074  6102
 2013/07/22 09:52:52  36,10  14,27  2091  6103
 2013/07/22 09:53:29  28,55  13,51  2139  6103
 2013/07/22 09:54:05  21,50  12,33  2216  6104
 2013/07/22 09:54:42  15,09  10,85  2320  6104
 2013/07/22 09:55:19   9,35   9,16  2446  6104
 2013/07/22 09:55:55   4,29   7,35  2592  6104
 2013/07/22 09:56:32 359,85   5,50  2754  6104
 2013/07/22 09:57:08 355,97   3,64  2929  6103
 2013/07/22 09:57:45 352,57   1,80  3115  6103
 2013/07/22 09:58:22 349,59  -0,00  3310  6102

 Orbit 3366
----------------------------------------------
 Time                  Az      El  Range Footp
----------------------------------------------
 2013/07/22 11:23:21 144,90   0,00  3297  6087
 2013/07/22 11:24:06 143,89   2,80  3001  6088
 2013/07/22 11:24:50 142,63   5,90  2708  6090
 2013/07/22 11:25:35 141,01   9,41  2418  6091
 2013/07/22 11:26:20 138,87  13,48  2134  6092
 2013/07/22 11:27:05 135,92  18,32  1858  6093
 2013/07/22 11:27:49 131,67  24,22  1597  6095
 2013/07/22 11:28:34 125,13  31,51  1360  6096
 2013/07/22 11:29:19 114,21  40,29  1160  6097
 2013/07/22 11:30:03  94,95  49,17  1023  6098
 2013/07/22 11:30:48  64,70  53,37   975  6099
 2013/07/22 11:31:33  34,79  48,88  1028  6100
 2013/07/22 11:32:18  15,96  39,95  1168  6101
 2013/07/22 11:33:02   5,30  31,25  1370  6102
 2013/07/22 11:33:47 358,90  24,02  1609  6103
 2013/07/22 11:34:32 354,74  18,18  1871  6103
 2013/07/22 11:35:16 351,87  13,39  2147  6104
 2013/07/22 11:36:01 349,80   9,35  2431  6104
 2013/07/22 11:36:46 348,24   5,86  2722  6104
 2013/07/22 11:37:31 347,04   2,78  3015  6103
 2013/07/22 11:38:15 346,09  -0,00  3311  6103

 Orbit 3367
----------------------------------------------
 Time                  Az      El  Range Footp
----------------------------------------------
 2013/07/22 13:03:22 192,44   0,00  3295  6086
 2013/07/22 13:04:05 194,69   2,55  3025  6087
 2013/07/22 13:04:49 197,36   5,31  2760  6088
 2013/07/22 13:05:32 200,60   8,33  2501  6089
 2013/07/22 13:06:16 204,61  11,68  2252  6091
 2013/07/22 13:07:00 209,68  15,38  2017  6092
 2013/07/22 13:07:43 216,23  19,44  1802  6093
 2013/07/22 13:08:27 224,81  23,74  1615  6094
 2013/07/22 13:09:10 236,05  27,89  1468  6096
 2013/07/22 13:09:54 250,19  31,05  1373  6097
 2013/07/22 13:10:37 266,38  32,21  1342  6098
 2013/07/22 13:11:21 282,48  30,88  1379  6099
 2013/07/22 13:12:04 296,39  27,63  1479  6100
 2013/07/22 13:12:48 307,40  23,47  1630  6101
 2013/07/22 13:13:31 315,82  19,20  1819  6102
 2013/07/22 13:14:15 322,25  15,18  2036  6102
 2013/07/22 13:14:58 327,25  11,53  2271  6103
 2013/07/22 13:15:42 331,23   8,23  2520  6103
 2013/07/22 13:16:25 334,46   5,24  2778  6104
 2013/07/22 13:17:09 337,14   2,51  3042  6104
 2013/07/22 13:17:52 339,42  -0,00  3311  6103

 Orbit 3373
----------------------------------------------
 Time                  Az      El  Range Footp
----------------------------------------------
 2013/07/22 23:29:07  29,28   0,00  3304  6093
 2013/07/22 23:29:42  32,62   1,46  3145  6091
 2013/07/22 23:30:16  36,31   2,91  2994  6090
 2013/07/22 23:30:51  40,36   4,33  2854  6088
 2013/07/22 23:31:25  44,82   5,70  2726  6086
 2013/07/22 23:32:00  49,70   6,99  2612  6084
 2013/07/22 23:32:34  55,01   8,15  2514  6082
 2013/07/22 23:33:09  60,72   9,13  2435  6080
 2013/07/22 23:33:43  66,79   9,89  2375  6078
 2013/07/22 23:34:18  73,13  10,38  2338  6076
 2013/07/22 23:34:52  79,62  10,56  2324  6074
 2013/07/22 23:35:27  86,12  10,41  2333  6072
 2013/07/22 23:36:01  92,50   9,95  2366  6070
 2013/07/22 23:36:35  98,63   9,21  2421  6068
 2013/07/22 23:37:10 104,42   8,24  2496  6065
 2013/07/22 23:37:44 109,81   7,08  2591  6063
 2013/07/22 23:38:19 114,76   5,78  2702  6061
 2013/07/22 23:38:53 119,29   4,40  2829  6059
 2013/07/22 23:39:28 123,41   2,95  2968  6057
 2013/07/22 23:40:02 127,14   1,48  3117  6056
 2013/07/22 23:40:37 130,53   0,00  3277  6054

 Orbit 3374
----------------------------------------------
 Time                  Az      El  Range Footp
----------------------------------------------
 2013/07/23 01:08:08  17,86   0,00  3306  6097
 2013/07/23 01:08:52  19,11   2,77  3011  6096
 2013/07/23 01:09:37  20,60   5,83  2718  6094
 2013/07/23 01:10:22  22,41   9,30  2428  6092
 2013/07/23 01:11:07  24,70  13,31  2144  6090
 2013/07/23 01:11:52  27,74  18,09  1867  6087
 2013/07/23 01:12:37  31,98  23,93  1603  6085
 2013/07/23 01:13:22  38,37  31,22  1362  6082
 2013/07/23 01:14:07  48,88  40,14  1156  6080
 2013/07/23 01:14:52  67,69  49,60  1010  6077
 2013/07/23 01:15:37  98,85  54,78   952  6074
 2013/07/23 01:16:22 131,22  50,58   996  6071
 2013/07/23 01:17:07 151,47  41,23  1132  6068
 2013/07/23 01:17:52 162,73  32,07  1331  6066
 2013/07/23 01:18:37 169,47  24,53  1569  6063
 2013/07/23 01:19:22 173,90  18,50  1831  6060
 2013/07/23 01:20:07 177,02  13,58  2107  6058
 2013/07/23 01:20:51 179,34   9,47  2392  6055
 2013/07/23 01:21:36 181,16   5,92  2682  6053
 2013/07/23 01:22:21 182,62   2,80  2976  6051

 Orbit 3375
----------------------------------------------
 Time                  Az      El  Range Footp
----------------------------------------------
 2013/07/23 02:47:53  12,44   0,00  3307  6099
 2013/07/23 02:48:36  10,57   2,53  3036  6098
 2013/07/23 02:49:18   8,29   5,28  2770  6096
 2013/07/23 02:50:01   5,47   8,28  2510  6095
 2013/07/23 02:50:44   1,90  11,61  2259  6093
 2013/07/23 02:51:26 357,30  15,32  2021  6091
 2013/07/23 02:52:09 351,26  19,42  1801  6089
 2013/07/23 02:52:52 343,18  23,81  1609  6086
 2013/07/23 02:53:34 332,41  28,12  1455  6084
 2013/07/23 02:54:17 318,55  31,54  1352  6082
 2013/07/23 02:55:00 302,34  32,95  1314  6079
 2013/07/23 02:55:43 286,00  31,73  1345  6077
 2013/07/23 02:56:25 271,86  28,40  1441  6074
 2013/07/23 02:57:08 260,80  24,09  1591  6071
 2013/07/23 02:57:51 252,48  19,65  1780  6069
 2013/07/23 02:58:33 246,25  15,50  1996  6066
 2013/07/23 02:59:16 241,51  11,74  2233  6063
 2013/07/23 02:59:59 237,83   8,37  2483  6061
 2013/07/23 03:00:41 234,91   5,32  2742  6058
 2013/07/23 03:01:24 232,54   2,55  3008  6056
 2013/07/23 03:02:07 230,59  -0,00  3278  6054

 Orbit 3376
----------------------------------------------
 Time                  Az      El  Range Footp
----------------------------------------------
 2013/07/23 04:27:47   9,82   0,00  3308  6100
 2013/07/23 04:28:19   6,73   1,37  3158  6100
 2013/07/23 04:28:51   3,32   2,72  3018  6099
 2013/07/23 04:29:23 359,58   4,03  2888  6098
 2013/07/23 04:29:56 355,47   5,29  2769  6097
 2013/07/23 04:30:28 350,98   6,45  2665  6095
 2013/07/23 04:31:00 346,13   7,48  2576  6094
 2013/07/23 04:31:32 340,93   8,35  2504  6093
 2013/07/23 04:32:04 335,44   9,00  2451  6091
 2013/07/23 04:32:36 329,73   9,42  2418  6090
 2013/07/23 04:33:08 323,90   9,56  2406  6088
 2013/07/23 04:33:41 318,06   9,42  2416  6086
 2013/07/23 04:34:13 312,34   9,01  2446  6085
 2013/07/23 04:34:45 306,82   8,36  2497  6083
 2013/07/23 04:35:17 301,58   7,50  2567  6081
 2013/07/23 04:35:49 296,69   6,46  2654  6079
 2013/07/23 04:36:21 292,16   5,30  2757  6077
 2013/07/23 04:36:53 288,01   4,04  2874  6075
 2013/07/23 04:37:25 284,22   2,72  3003  6073
 2013/07/23 04:37:58 280,77   1,37  3142  6071
 2013/07/23 04:38:30 277,63  -0,00  3290  6069

 Orbit 3379
----------------------------------------------
 Time                  Az      El  Range Footp
----------------------------------------------
 2013/07/23 09:18:39  84,78   0,00  3306  6095
 2013/07/23 09:19:12  81,65   1,44  3150  6096
 2013/07/23 09:19:45  78,20   2,86  3003  6097
 2013/07/23 09:20:18  74,38   4,26  2867  6098
 2013/07/23 09:20:51  70,18   5,59  2743  6098
 2013/07/23 09:21:24  65,57   6,84  2634  6099
 2013/07/23 09:21:57  60,56   7,96  2541  6100
 2013/07/23 09:22:30  55,16   8,90  2465  6100
 2013/07/23 09:23:03  49,44   9,61  2410  6101
 2013/07/23 09:23:36  43,48  10,06  2377  6102
 2013/07/23 09:24:08  37,40  10,22  2365  6102
 2013/07/23 09:24:41  31,31  10,06  2377  6102
 2013/07/23 09:25:14  25,35   9,61  2411  6103
 2013/07/23 09:25:47  19,64   8,90  2466  6103
 2013/07/23 09:26:20  14,25   7,96  2541  6103
 2013/07/23 09:26:53   9,24   6,84  2635  6103
 2013/07/23 09:27:26   4,64   5,59  2745  6103
 2013/07/23 09:27:59   0,45   4,25  2869  6102
 2013/07/23 09:28:32 356,65   2,86  3006  6102
 2013/07/23 09:29:05 353,21   1,43  3153  6101

 Orbit 3380
----------------------------------------------
 Time                  Az      El  Range Footp
----------------------------------------------
 2013/07/23 10:55:08 131,62   0,00  3298  6088
 2013/07/23 10:55:51 129,80   2,60  3023  6089
 2013/07/23 10:56:34 127,59   5,43  2752  6090
 2013/07/23 10:57:18 124,83   8,55  2486  6091
 2013/07/23 10:58:01 121,35  12,03  2230  6092
 2013/07/23 10:58:44 116,81  15,95  1986  6094
 2013/07/23 10:59:27 110,78  20,34  1761  6095
 2013/07/23 11:00:10 102,58  25,13  1564  6096
 2013/07/23 11:00:54  91,38  29,92  1406  6097
 2013/07/23 11:01:37  76,62  33,75  1302  6098
 2013/07/23 11:02:20  59,12  35,25  1266  6099
 2013/07/23 11:03:03  41,67  33,68  1305  6100
 2013/07/23 11:03:46  27,02  29,81  1410  6101
 2013/07/23 11:04:30  15,93  25,02  1570  6102
 2013/07/23 11:05:13   7,82  20,25  1769  6102
 2013/07/23 11:05:56   1,87  15,88  1995  6102
 2013/07/23 11:06:39 357,40  11,98  2239  6103
 2013/07/23 11:07:22 353,97   8,51  2496  6103
 2013/07/23 11:08:06 351,28   5,40  2762  6103
 2013/07/23 11:08:49 349,12   2,58  3034  6102
 2013/07/23 11:09:32 347,36  -0,00  3310  6102

 Orbit 3381
----------------------------------------------
 Time                  Az      El  Range Footp
----------------------------------------------
 2013/07/23 12:34:16 178,29   0,00  3294  6086
 2013/07/23 12:35:01 179,65   2,79  3000  6087
 2013/07/23 12:35:46 181,28   5,88  2708  6088
 2013/07/23 12:36:31 183,30   9,36  2420  6089
 2013/07/23 12:37:16 185,89  13,39  2137  6090
 2013/07/23 12:38:01 189,33  18,16  1865  6091
 2013/07/23 12:38:46 194,15  23,93  1607  6092
 2013/07/23 12:39:31 201,35  30,99  1373  6094
 2013/07/23 12:40:16 212,91  39,28  1178  6095
 2013/07/23 12:41:01 232,26  47,40  1046  6096
 2013/07/23 12:41:46 260,90  51,03  1000  6097
 2013/07/23 12:42:31 289,07  46,95  1053  6098
 2013/07/23 12:43:16 307,78  38,76  1191  6099
 2013/07/23 12:44:01 318,96  30,55  1389  6100
 2013/07/23 12:44:46 325,98  23,61  1624  6101
 2013/07/23 12:45:32 330,71  17,93  1883  6102
 2013/07/23 12:46:17 334,12  13,23  2156  6102
 2013/07/23 12:47:02 336,70   9,26  2438  6102
 2013/07/23 12:47:47 338,74   5,81  2726  6103
 2013/07/23 12:48:32 340,41   2,76  3017  6103

 Orbit 3382
----------------------------------------------
 Time                  Az      El  Range Footp
----------------------------------------------
 2013/07/23 14:16:57 231,98  -0,00  3299  6088
 2013/07/23 14:17:31 235,35   1,39  3148  6089
 2013/07/23 14:18:05 239,05   2,78  3006  6090
 2013/07/23 14:18:39 243,09   4,12  2875  6091
 2013/07/23 14:19:12 247,51   5,40  2756  6092
 2013/07/23 14:19:46 252,32   6,59  2651  6093
 2013/07/23 14:20:20 257,50   7,65  2562  6094
 2013/07/23 14:20:54 263,03   8,54  2490  6094
 2013/07/23 14:21:27 268,87   9,20  2438  6095
 2013/07/23 14:22:01 274,91   9,62  2407  6096
 2013/07/23 14:22:35 281,07   9,75  2397  6097
 2013/07/23 14:23:09 287,23   9,60  2409  6098
 2013/07/23 14:23:43 293,26   9,17  2443  6099
 2013/07/23 14:24:16 299,06   8,50  2497  6100
 2013/07/23 14:24:50 304,57   7,61  2570  6100
 2013/07/23 14:25:24 309,72   6,55  2660  6101
 2013/07/23 14:25:58 314,49   5,36  2766  6101
 2013/07/23 14:26:32 318,88   4,09  2886  6102
 2013/07/23 14:27:05 322,91   2,75  3017  6102
 2013/07/23 14:27:39 326,59   1,39  3159  6102
 2013/07/23 14:28:13 329,95   0,00  3310  6103

 Orbit 3387
----------------------------------------------
 Time                  Az      El  Range Footp
----------------------------------------------
 2013/07/23 23:01:07  36,05   0,00  3302  6089
 2013/07/23 23:01:34  39,10   0,85  3208  6088
 2013/07/23 23:02:01  42,32   1,65  3122  6087
 2013/07/23 23:02:28  45,71   2,39  3043  6085
 2013/07/23 23:02:55  49,27   3,08  2973  6084
 2013/07/23 23:03:22  52,99   3,69  2912  6082
 2013/07/23 23:03:49  56,86   4,21  2861  6081
 2013/07/23 23:04:15  60,85   4,63  2820  6079
 2013/07/23 23:04:42  64,95   4,94  2791  6077
 2013/07/23 23:05:09  69,12   5,13  2772  6076
 2013/07/23 23:05:36  73,33   5,20  2765  6074
 2013/07/23 23:06:03  77,54   5,14  2769  6073
 2013/07/23 23:06:30  81,73   4,95  2785  6071
 2013/07/23 23:06:57  85,84   4,65  2812  6069
 2013/07/23 23:07:24  89,86   4,23  2851  6068
 2013/07/23 23:07:50  93,76   3,71  2900  6066
 2013/07/23 23:08:17  97,51   3,10  2959  6064
 2013/07/23 23:08:44 101,11   2,41  3027  6063
 2013/07/23 23:09:11 104,54   1,66  3104  6061
 2013/07/23 23:09:38 107,79   0,85  3189  6060
 2013/07/23 23:10:05 110,87  -0,00  3282  6058

 Orbit 3388
----------------------------------------------
 Time                  Az      El  Range Footp
----------------------------------------------
 2013/07/24 00:39:31  20,20   0,00  3305  6095
 2013/07/24 00:40:15  22,34   2,55  3033  6094
 2013/07/24 00:40:59  24,87   5,31  2764  6092
 2013/07/24 00:41:42  27,93   8,35  2502  6090
 2013/07/24 00:42:26  31,71  11,74  2247  6088
 2013/07/24 00:43:09  36,50  15,53  2006  6085
 2013/07/24 00:43:53  42,74  19,77  1782  6083
 2013/07/24 00:44:36  51,05  24,37  1585  6081
 2013/07/24 00:45:20  62,20  28,98  1425  6078
 2013/07/24 00:46:04  76,74  32,74  1318  6075
 2013/07/24 00:46:47  93,98  34,35  1276  6073
 2013/07/24 00:47:31 111,44  33,07  1307  6070
 2013/07/24 00:48:14 126,44  29,47  1405  6067
 2013/07/24 00:48:58 138,04  24,86  1558  6065
 2013/07/24 00:49:41 146,68  20,18  1751  6062
 2013/07/24 00:50:25 153,15  15,85  1972  6060
 2013/07/24 00:51:09 158,08  11,97  2212  6057
 2013/07/24 00:51:52 161,94   8,51  2466  6055
 2013/07/24 00:52:36 165,04   5,40  2729  6053
 2013/07/24 00:53:19 167,58   2,58  2998  6051

 Orbit 3389
----------------------------------------------
 Time                  Az      El  Range Footp
----------------------------------------------
 2013/07/24 02:19:10  13,68   0,00  3306  6098
 2013/07/24 02:19:54  12,60   2,74  3014  6096
 2013/07/24 02:20:38  11,23   5,77  2725  6095
 2013/07/24 02:21:23   9,48   9,17  2438  6093
 2013/07/24 02:22:07   7,16  13,10  2158  6091
 2013/07/24 02:22:51   4,00  17,71  1887  6089
 2013/07/24 02:23:35 359,48  23,27  1630  6086
 2013/07/24 02:24:20 352,67  30,02  1397  6084
 2013/07/24 02:25:04 341,77  37,91  1201  6082
 2013/07/24 02:25:48 323,71  45,70  1064  6079
 2013/07/24 02:26:33 297,00  49,59  1010  6076
 2013/07/24 02:27:17 269,68  46,29  1053  6074
 2013/07/24 02:28:01 250,75  38,61  1182  6071
 2013/07/24 02:28:46 239,28  30,59  1373  6068
 2013/07/24 02:29:30 232,15  23,69  1603  6066
 2013/07/24 02:30:14 227,43  18,00  1858  6063
 2013/07/24 02:30:58 224,13  13,28  2128  6060
 2013/07/24 02:31:43 221,71   9,29  2408  6058
 2013/07/24 02:32:27 219,87   5,83  2693  6055
 2013/07/24 02:33:11 218,42   2,76  2983  6053

 Orbit 3390
----------------------------------------------
 Time                  Az      El  Range Footp
----------------------------------------------
 2013/07/24 03:59:04  10,27   0,00  3307  6099
 2013/07/24 03:59:39   7,27   1,73  3119  6098
 2013/07/24 04:00:15   3,87   3,49  2940  6097
 2013/07/24 04:00:51   0,00   5,25  2772  6096
 2013/07/24 04:01:27 355,61   7,00  2617  6094
 2013/07/24 04:02:03 350,64   8,68  2477  6093
 2013/07/24 04:02:39 345,05  10,25  2356  6091
 2013/07/24 04:03:14 338,84  11,61  2257  6090
 2013/07/24 04:03:50 332,07  12,69  2183  6088
 2013/07/24 04:04:26 324,85  13,39  2137  6086
 2013/07/24 04:05:02 317,38  13,63  2120  6084
 2013/07/24 04:05:38 309,90  13,40  2134  6082
 2013/07/24 04:06:14 302,65  12,72  2177  6080
 2013/07/24 04:06:49 295,83  11,65  2248  6078
 2013/07/24 04:07:25 289,56  10,28  2345  6076
 2013/07/24 04:08:01 283,90   8,72  2464  6074
 2013/07/24 04:08:37 278,87   7,02  2601  6072
 2013/07/24 04:09:13 274,41   5,27  2755  6069
 2013/07/24 04:09:49 270,48   3,50  2922  6067
 2013/07/24 04:10:24 267,01   1,73  3099  6065
 2013/07/24 04:11:00 263,95  -0,00  3286  6063

 Orbit 3393
----------------------------------------------
 Time                  Az      El  Range Footp
----------------------------------------------
 2013/07/24 08:51:18  71,07   0,00  3307  6097
 2013/07/24 08:51:47  68,03   1,09  3188  6097
 2013/07/24 08:52:15  64,76   2,14  3078  6098
 2013/07/24 08:52:44  61,25   3,14  2977  6099
 2013/07/24 08:53:13  57,49   4,07  2886  6099
 2013/07/24 08:53:42  53,48   4,90  2807  6100
 2013/07/24 08:54:11  49,25   5,63  2741  6100
 2013/07/24 08:54:40  44,81   6,23  2688  6101
 2013/07/24 08:55:09  40,20   6,67  2649  6101
 2013/07/24 08:55:38  35,48   6,94  2626  6101
 2013/07/24 08:56:06  30,69   7,04  2618  6101
 2013/07/24 08:56:35  25,90   6,95  2626  6102
 2013/07/24 08:57:04  21,18   6,67  2649  6102
 2013/07/24 08:57:33  16,57   6,23  2688  6102
 2013/07/24 08:58:02  12,13   5,64  2740  6102
 2013/07/24 08:58:31   7,90   4,91  2807  6101
 2013/07/24 08:59:00   3,89   4,07  2886  6101
 2013/07/24 08:59:28   0,13   3,14  2977  6101
 2013/07/24 08:59:57 356,62   2,14  3078  6101
 2013/07/24 09:00:26 353,36   1,09  3189  6100
 2013/07/24 09:00:55 350,33   0,00  3307  6099

 Orbit 3394
----------------------------------------------
 Time                  Az      El  Range Footp
----------------------------------------------
 2013/07/24 10:27:08 118,29   0,00  3299  6089
 2013/07/24 10:27:49 115,83   2,31  3053  6090
 2013/07/24 10:28:30 112,92   4,77  2813  6091
 2013/07/24 10:29:11 109,43   7,39  2582  6092
 2013/07/24 10:29:52 105,18  10,19  2362  6093
 2013/07/24 10:30:33  99,98  13,14  2158  6094
 2013/07/24 10:31:14  93,57  16,18  1974  6095
 2013/07/24 10:31:55  85,69  19,15  1819  6096
 2013/07/24 10:32:36  76,17  21,77  1699  6097
 2013/07/24 10:33:17  65,14  23,62  1623  6098
 2013/07/24 10:33:58  53,15  24,28  1597  6099
 2013/07/24 10:34:39  41,18  23,60  1624  6100
 2013/07/24 10:35:20  30,18  21,74  1701  6100
 2013/07/24 10:36:01  20,70  19,12  1822  6101
 2013/07/24 10:36:42  12,87  16,15  1979  6101
 2013/07/24 10:37:23   6,50  13,11  2163  6102
 2013/07/24 10:38:04   1,34  10,17  2368  6102
 2013/07/24 10:38:45 357,14   7,38  2589  6102
 2013/07/24 10:39:26 353,69   4,76  2821  6101
 2013/07/24 10:40:07 350,83   2,30  3062  6101

 Orbit 3395
----------------------------------------------
 Time                  Az      El  Range Footp
----------------------------------------------
 2013/07/24 12:05:27 164,62   0,00  3294  6085
 2013/07/24 12:06:13 165,00   2,89  2990  6086
 2013/07/24 12:06:58 165,45   6,12  2687  6087
 2013/07/24 12:07:44 165,98   9,81  2385  6088
 2013/07/24 12:08:29 166,65  14,18  2088  6089
 2013/07/24 12:09:15 167,53  19,51  1797  6091
 2013/07/24 12:10:00 168,77  26,34  1518  6092
 2013/07/24 12:10:46 170,73  35,50  1258  6093
 2013/07/24 12:11:31 174,47  48,28  1033  6094
 2013/07/24 12:12:17 184,98  65,81   872  6096
 2013/07/24 12:13:02 258,18  80,87   814  6097
 2013/07/24 12:13:48 324,11  64,76   879  6098
 2013/07/24 12:14:33 333,88  47,52  1045  6099
 2013/07/24 12:15:19 337,48  35,00  1272  6100
 2013/07/24 12:16:04 339,41  26,02  1533  6100
 2013/07/24 12:16:50 340,66  19,30  1814  6101
 2013/07/24 12:17:36 341,55  14,03  2104  6101
 2013/07/24 12:18:21 342,26   9,72  2402  6102
 2013/07/24 12:19:07 342,83   6,06  2703  6102
 2013/07/24 12:19:52 343,33   2,86  3006  6101
 2013/07/24 12:20:38 343,78  -0,00  3309  6101

 Orbit 3396
----------------------------------------------
 Time                  Az      El  Range Footp
----------------------------------------------
 2013/07/24 13:46:56 214,90   0,00  3296  6086
 2013/07/24 13:47:35 218,08   1,95  3087  6087
 2013/07/24 13:48:14 221,70   3,96  2887  6088
 2013/07/24 13:48:53 225,86   6,01  2698  6089
 2013/07/24 13:49:32 230,63   8,09  2522  6090
 2013/07/24 13:50:11 236,12  10,15  2363  6091
 2013/07/24 13:50:50 242,42  12,11  2224  6092
 2013/07/24 13:51:29 249,55  13,87  2110  6093
 2013/07/24 13:52:08 257,48  15,28  2025  6094
 2013/07/24 13:52:47 266,05  16,20  1973  6095
 2013/07/24 13:53:26 274,96  16,51  1956  6096
 2013/07/24 13:54:05 283,87  16,16  1977  6097
 2013/07/24 13:54:44 292,38  15,21  2032  6098
 2013/07/24 13:55:23 300,25  13,77  2120  6099
 2013/07/24 13:56:02 307,31  12,01  2236  6099
 2013/07/24 13:56:41 313,53  10,05  2376  6100
 2013/07/24 13:57:20 318,97   8,01  2537  6101
 2013/07/24 13:57:59 323,70   5,94  2713  6101
 2013/07/24 13:58:38 327,83   3,91  2902  6101
 2013/07/24 13:59:17 331,45   1,93  3102  6101

 Orbit 3402
----------------------------------------------
 Time                  Az      El  Range Footp
----------------------------------------------
 2013/07/25 00:11:00  23,13   0,00  3304  6093
 2013/07/25 00:11:41  25,99   2,19  3068  6092
 2013/07/25 00:12:22  29,30   4,50  2838  6090
 2013/07/25 00:13:03  33,17   6,95  2617  6088
 2013/07/25 00:13:44  37,75   9,51  2408  6086
 2013/07/25 00:14:25  43,21  12,18  2215  6084
 2013/07/25 00:15:06  49,76  14,88  2042  6081
 2013/07/25 00:15:47  57,58  17,47  1895  6079
 2013/07/25 00:16:28  66,77  19,72  1781  6077
 2013/07/25 00:17:09  77,20  21,30  1708  6074
 2013/07/25 00:17:50  88,42  21,91  1680  6072
 2013/07/25 00:18:32  99,71  21,42  1700  6069
 2013/07/25 00:19:13 110,30  19,92  1766  6067
 2013/07/25 00:19:54 119,69  17,72  1874  6064
 2013/07/25 00:20:35 127,71  15,12  2016  6062
 2013/07/25 00:21:16 134,43  12,39  2186  6060
 2013/07/25 00:21:57 140,03   9,68  2378  6057
 2013/07/25 00:22:38 144,70   7,06  2586  6055
 2013/07/25 00:23:19 148,64   4,58  2806  6053
 2013/07/25 00:24:00 151,98   2,22  3036  6051
 2013/07/25 00:24:41 154,85  -0,00  3273  6049

 Orbit 3403
----------------------------------------------
 Time                  Az      El  Range Footp
----------------------------------------------
 2013/07/25 01:50:27  15,15   0,00  3305  6096
 2013/07/25 01:51:13  14,98   2,84  3003  6095
 2013/07/25 01:51:58  14,73   6,01  2701  6093
 2013/07/25 01:52:43  14,35   9,63  2402  6091
 2013/07/25 01:53:28  13,79  13,89  2106  6089
 2013/07/25 01:54:13  12,96  19,08  1817  6087
 2013/07/25 01:54:58  11,64  25,68  1538  6084
 2013/07/25 01:55:44   9,38  34,46  1278  6082
 2013/07/25 01:56:29   4,88  46,58  1051  6079
 2013/07/25 01:57:14 352,75  62,95   885  6077
 2013/07/25 01:57:59 295,35  77,11   817  6074
 2013/07/25 01:58:44 229,09  64,82   871  6071
 2013/07/25 01:59:29 215,19  48,00  1028  6069
 2013/07/25 02:00:15 210,27  35,38  1249  6066
 2013/07/25 02:01:00 207,84  26,27  1506  6063
 2013/07/25 02:01:45 206,43  19,46  1784  6061
 2013/07/25 02:02:30 205,52  14,13  2073  6058
 2013/07/25 02:03:15 204,90   9,78  2368  6056
 2013/07/25 02:04:00 204,46   6,09  2668  6053
 2013/07/25 02:04:46 204,14   2,87  2970  6051
 2013/07/25 02:05:31 203,90  -0,00  3273  6049

 Orbit 3404
----------------------------------------------
 Time                  Az      El  Range Footp
----------------------------------------------
 2013/07/25 03:30:19  10,99   0,00  3306  6098
 2013/07/25 03:30:58   8,28   2,09  3081  6096
 2013/07/25 03:31:37   5,13   4,26  2864  6095
 2013/07/25 03:32:17   1,42   6,53  2657  6094
 2013/07/25 03:32:56 357,03   8,87  2462  6092
 2013/07/25 03:33:35 351,83  11,25  2283  6091
 2013/07/25 03:34:14 345,67  13,60  2125  6089
 2013/07/25 03:34:53 338,44  15,77  1992  6087
 2013/07/25 03:35:32 330,13  17,59  1891  6085
 2013/07/25 03:36:11 320,89  18,83  1827  6083
 2013/07/25 03:36:50 311,09  19,28  1804  6081
 2013/07/25 03:37:29 301,26  18,87  1823  6079
 2013/07/25 03:38:08 291,95  17,66  1883  6076
 2013/07/25 03:38:47 283,55  15,85  1981  6074
 2013/07/25 03:39:26 276,21  13,68  2110  6072
 2013/07/25 03:40:05 269,95  11,32  2266  6069
 2013/07/25 03:40:44 264,65   8,92  2443  6067
 2013/07/25 03:41:23 260,17   6,56  2636  6065
 2013/07/25 03:42:02 256,38   4,28  2842  6062
 2013/07/25 03:42:41 253,15   2,09  3058  6060

 Orbit 3405
----------------------------------------------
 Time                  Az      El  Range Footp
----------------------------------------------
 2013/07/25 05:10:09   9,76   0,00  3307  6099
 2013/07/25 05:10:35   6,89   0,88  3210  6098
 2013/07/25 05:11:01   3,84   1,72  3121  6098
 2013/07/25 05:11:27   0,60   2,50  3040  6097
 2013/07/25 05:11:53 357,20   3,21  2967  6096
 2013/07/25 05:12:19 353,62   3,85  2904  6095
 2013/07/25 05:12:46 349,88   4,39  2851  6094
 2013/07/25 05:13:12 346,01   4,83  2810  6093
 2013/07/25 05:13:38 342,04   5,15  2779  6092
 2013/07/25 05:14:04 337,98   5,35  2760  6091
 2013/07/25 05:14:30 333,89   5,42  2754  6090
 2013/07/25 05:14:56 329,79   5,35  2759  6089
 2013/07/25 05:15:22 325,73   5,15  2776  6088
 2013/07/25 05:15:48 321,74   4,83  2806  6087
 2013/07/25 05:16:14 317,86   4,39  2846  6085
 2013/07/25 05:16:40 314,11   3,85  2898  6084
 2013/07/25 05:17:06 310,51   3,21  2959  6082
 2013/07/25 05:17:32 307,08   2,49  3031  6081
 2013/07/25 05:17:58 303,83   1,71  3111  6080
 2013/07/25 05:18:24 300,75   0,88  3199  6078

 Orbit 3408
----------------------------------------------
 Time                  Az      El  Range Footp
----------------------------------------------
 2013/07/25 09:59:21 104,84   0,00  3301  6090
 2013/07/25 09:59:59 101,95   1,97  3090  6091
 2013/07/25 10:00:37  98,63   4,01  2887  6092
 2013/07/25 10:01:15  94,78   6,11  2693  6093
 2013/07/25 10:01:54  90,29   8,24  2513  6094
 2013/07/25 10:02:32  85,08  10,37  2350  6095
 2013/07/25 10:03:10  79,03  12,41  2207  6096
 2013/07/25 10:03:48  72,11  14,26  2088  6097
 2013/07/25 10:04:26  64,32  15,77  1999  6097
 2013/07/25 10:05:04  55,85  16,76  1944  6098
 2013/07/25 10:05:42  46,97  17,11  1925  6099
 2013/07/25 10:06:20  38,10  16,76  1944  6099
 2013/07/25 10:06:58  29,63  15,77  2000  6100
 2013/07/25 10:07:36  21,86  14,27  2089  6100
 2013/07/25 10:08:15  14,94  12,42  2208  6100
 2013/07/25 10:08:53   8,92  10,37  2352  6101
 2013/07/25 10:09:31   3,72   8,25  2516  6101
 2013/07/25 10:10:09 359,26   6,11  2697  6100
 2013/07/25 10:10:47 355,44   4,02  2891  6100
 2013/07/25 10:11:25 352,14   1,98  3095  6100

 Orbit 3409
----------------------------------------------
 Time                  Az      El  Range Footp
----------------------------------------------
 2013/07/25 11:36:53 151,22   0,00  3295  6085
 2013/07/25 11:37:38 150,64   2,86  2994  6086
 2013/07/25 11:38:24 149,90   6,04  2694  6087
 2013/07/25 11:39:09 148,93   9,66  2397  6088
 2013/07/25 11:39:54 147,62  13,92  2104  6089
 2013/07/25 11:40:39 145,77  19,07  1819  6090
 2013/07/25 11:41:24 143,00  25,54  1546  6092
 2013/07/25 11:42:09 138,47  33,97  1294  6093
 2013/07/25 11:42:55 130,05  45,04  1079  6094
 2013/07/25 11:43:40 111,11  58,18   927  6095
 2013/07/25 11:44:25  67,01  65,81   872  6096
 2013/07/25 11:45:10  24,02  57,65   932  6097
 2013/07/25 11:45:55   5,81  44,55  1088  6098
 2013/07/25 11:46:40 357,65  33,62  1305  6099
 2013/07/25 11:47:25 353,25  25,31  1559  6100
 2013/07/25 11:48:11 350,56  18,91  1832  6100
 2013/07/25 11:48:56 348,77  13,81  2118  6100
 2013/07/25 11:49:41 347,52   9,60  2411  6101
 2013/07/25 11:50:26 346,61   5,99  2708  6100
 2013/07/25 11:51:11 345,93   2,83  3008  6100
 2013/07/25 11:51:56 345,41  -0,00  3309  6100

 Orbit 3410
----------------------------------------------
 Time                  Az      El  Range Footp
----------------------------------------------
 2013/07/25 13:17:21 199,43   0,00  3294  6085
 2013/07/25 13:18:03 202,04   2,39  3041  6085
 2013/07/25 13:18:46 205,11   4,93  2794  6086
 2013/07/25 13:19:28 208,77   7,67  2555  6087
 2013/07/25 13:20:11 213,20  10,61  2327  6088
 2013/07/25 13:20:53 218,64  13,75  2115  6089
 2013/07/25 13:21:35 225,38  17,03  1924  6091
 2013/07/25 13:22:18 233,74  20,30  1761  6092
 2013/07/25 13:23:00 243,95  23,22  1636  6093
 2013/07/25 13:23:42 255,95  25,30  1556  6094
 2013/07/25 13:24:25 269,06  26,03  1531  6095
 2013/07/25 13:25:07 282,12  25,20  1561  6096
 2013/07/25 13:25:49 293,99  23,05  1645  6097
 2013/07/25 13:26:32 304,06  20,11  1774  6098
 2013/07/25 13:27:14 312,29  16,86  1939  6099
 2013/07/25 13:27:57 318,92  13,60  2131  6099
 2013/07/25 13:28:39 324,30  10,49  2344  6100
 2013/07/25 13:29:21 328,70   7,58  2571  6100
 2013/07/25 13:30:04 332,35   4,88  2810  6100
 2013/07/25 13:30:46 335,42   2,36  3056  6100
 2013/07/25 13:31:28 338,06   0,00  3308  6100

 Orbit 3416
----------------------------------------------
 Time                  Az      El  Range Footp
----------------------------------------------
 2013/07/25 23:42:36  26,98   0,00  3302  6091
 2013/07/25 23:43:13  30,27   1,72  3116  6089
 2013/07/25 23:43:50  33,95   3,46  2937  6088
 2013/07/25 23:44:27  38,09   5,21  2770  6086
 2013/07/25 23:45:04  42,75   6,95  2615  6084
 2013/07/25 23:45:41  47,98   8,63  2475  6082
 2013/07/25 23:46:18  53,83  10,20  2354  6080
 2013/07/25 23:46:55  60,29  11,57  2254  6078
 2013/07/25 23:47:32  67,32  12,65  2179  6076
 2013/07/25 23:48:09  74,81  13,36  2132  6074
 2013/07/25 23:48:46  82,55  13,62  2114  6071
 2013/07/25 23:49:23  90,31  13,41  2126  6069
 2013/07/25 23:50:00  97,85  12,74  2168  6067
 2013/07/25 23:50:37 104,97  11,68  2238  6065
 2013/07/25 23:51:14 111,54  10,32  2334  6063
 2013/07/25 23:51:52 117,49   8,75  2452  6060
 2013/07/25 23:52:29 122,81   7,05  2590  6058
 2013/07/25 23:53:06 127,54   5,29  2743  6056
 2013/07/25 23:53:43 131,75   3,51  2910  6054
 2013/07/25 23:54:20 135,47   1,74  3088  6053
 2013/07/25 23:54:57 138,79  -0,00  3275  6051

 Orbit 3417
----------------------------------------------
 Time                  Az      El  Range Footp
----------------------------------------------
 2013/07/26 01:21:47  16,91   0,00  3304  6094
 2013/07/26 01:22:32  17,71   2,82  3004  6093
 2013/07/26 01:23:18  18,64   5,96  2705  6091
 2013/07/26 01:24:03  19,77   9,54  2408  6089
 2013/07/26 01:24:48  21,18  13,74  2115  6087
 2013/07/26 01:25:33  23,06  18,82  1828  6085
 2013/07/26 01:26:18  25,71  25,22  1554  6082
 2013/07/26 01:27:04  29,86  33,59  1298  6080
 2013/07/26 01:27:49  37,36  44,78  1077  6077
 2013/07/26 01:28:34  54,43  58,75   916  6075
 2013/07/26 01:29:19 100,21  68,53   850  6072
 2013/07/26 01:30:04 149,93  60,34   901  6069
 2013/07/26 01:30:50 169,04  46,16  1052  6067
 2013/07/26 01:31:35 177,16  34,54  1268  6064
 2013/07/26 01:32:20 181,54  25,85  1520  6061
 2013/07/26 01:33:05 184,30  19,23  1794  6059
 2013/07/26 01:33:50 186,20  14,00  2080  6056
 2013/07/26 01:34:36 187,62   9,71  2373  6054
 2013/07/26 01:35:21 188,72   6,05  2670  6052
 2013/07/26 01:36:06 189,62   2,86  2970  6050

 Orbit 3418
----------------------------------------------
 Time                  Az      El  Range Footp
----------------------------------------------
 2013/07/26 03:01:35  11,91   0,00  3305  6096
 2013/07/26 03:02:17   9,73   2,40  3048  6095
 2013/07/26 03:02:58   7,10   4,98  2796  6094
 2013/07/26 03:03:40   3,90   7,76  2552  6092
 2013/07/26 03:04:22 359,94  10,77  2318  6090
 2013/07/26 03:05:03 354,97  14,02  2098  6088
 2013/07/26 03:05:45 348,69  17,47  1899  6087
 2013/07/26 03:06:27 340,69  20,97  1727  6084
 2013/07/26 03:07:08 330,66  24,20  1592  6082
 2013/07/26 03:07:50 318,56  26,60  1504  6080
 2013/07/26 03:08:32 305,05  27,54  1471  6078
 2013/07/26 03:09:13 291,48  26,71  1498  6075
 2013/07/26 03:09:55 279,22  24,37  1581  6073
 2013/07/26 03:10:37 268,99  21,16  1712  6070
 2013/07/26 03:11:18 260,81  17,63  1880  6068
 2013/07/26 03:12:00 254,37  14,15  2077  6065
 2013/07/26 03:12:41 249,28  10,86  2295  6063
 2013/07/26 03:13:23 245,21   7,82  2527  6060
 2013/07/26 03:14:05 241,92   5,01  2771  6058
 2013/07/26 03:14:46 239,20   2,41  3022  6056
 2013/07/26 03:15:28 236,94  -0,00  3278  6054

 Orbit 3419
----------------------------------------------
 Time                  Az      El  Range Footp
----------------------------------------------
 2013/07/26 04:41:28   9,69  -0,00  3307  6097
 2013/07/26 04:41:59   6,63   1,20  3175  6097
 2013/07/26 04:42:29   3,31   2,36  3052  6096
 2013/07/26 04:42:59 359,69   3,49  2939  6095
 2013/07/26 04:43:29 355,78   4,54  2837  6094
 2013/07/26 04:43:59 351,58   5,50  2747  6093
 2013/07/26 04:44:30 347,09   6,35  2671  6092
 2013/07/26 04:45:00 342,35   7,04  2611  6091
 2013/07/26 04:45:30 337,39   7,57  2566  6089
 2013/07/26 04:46:00 332,27   7,89  2538  6088
 2013/07/26 04:46:31 327,08   8,00  2528  6087
 2013/07/26 04:47:01 321,87   7,89  2536  6085
 2013/07/26 04:47:31 316,75   7,57  2562  6083
 2013/07/26 04:48:01 311,77   7,06  2605  6082
 2013/07/26 04:48:31 307,00   6,36  2664  6080
 2013/07/26 04:49:02 302,48   5,52  2738  6079
 2013/07/26 04:49:32 298,24   4,55  2826  6077
 2013/07/26 04:50:02 294,30   3,50  2927  6075
 2013/07/26 04:50:32 290,64   2,37  3039  6073
 2013/07/26 04:51:02 287,28   1,20  3160  6071

 Orbit 3422
----------------------------------------------
 Time                  Az      El  Range Footp
----------------------------------------------
 2013/07/26 09:31:45  91,26  -0,00  3304  6091
 2013/07/26 09:32:20  88,17   1,60  3130  6092
 2013/07/26 09:32:55  84,70   3,22  2965  6093
 2013/07/26 09:33:29  80,81   4,82  2811  6094
 2013/07/26 09:34:04  76,46   6,39  2670  6095
 2013/07/26 09:34:39  71,60   7,88  2544  6095
 2013/07/26 09:35:13  66,23   9,24  2436  6096
 2013/07/26 09:35:48  60,36  10,40  2349  6097
 2013/07/26 09:36:23  54,04  11,30  2284  6097
 2013/07/26 09:36:57  47,38  11,88  2244  6098
 2013/07/26 09:37:32  40,54  12,08  2231  6099
 2013/07/26 09:38:07  33,71  11,88  2244  6099
 2013/07/26 09:38:42  27,05  11,31  2284  6099
 2013/07/26 09:39:16  20,74  10,41  2349  6099
 2013/07/26 09:39:51  14,87   9,24  2437  6100
 2013/07/26 09:40:26   9,51   7,89  2545  6100
 2013/07/26 09:41:00   4,66   6,40  2672  6099
 2013/07/26 09:41:35   0,32   4,83  2813  6099
 2013/07/26 09:42:10 356,45   3,22  2968  6099
 2013/07/26 09:42:44 353,00   1,60  3133  6098
 2013/07/26 09:43:19 349,92  -0,00  3307  6098

 Orbit 3423
----------------------------------------------
 Time                  Az      El  Range Footp
----------------------------------------------
 2013/07/26 11:08:34 137,93   0,00  3296  6085
 2013/07/26 11:09:18 136,47   2,70  3010  6086
 2013/07/26 11:10:02 134,68   5,67  2727  6087
 2013/07/26 11:10:46 132,42   9,00  2449  6088
 2013/07/26 11:11:30 129,50  12,78  2178  6089
 2013/07/26 11:12:14 125,60  17,15  1918  6090
 2013/07/26 11:12:58 120,20  22,26  1674  6092
 2013/07/26 11:13:42 112,42  28,19  1457  6093
 2013/07/26 11:14:26 100,86  34,62  1279  6094
 2013/07/26 11:15:10  83,87  40,28  1160  6095
 2013/07/26 11:15:54  61,87  42,64  1118  6096
 2013/07/26 11:16:38  39,98  40,15  1163  6097
 2013/07/26 11:17:22  23,19  34,45  1285  6098
 2013/07/26 11:18:06  11,79  28,03  1464  6098
 2013/07/26 11:18:50   4,13  22,14  1683  6099
 2013/07/26 11:19:34 358,81  17,06  1927  6099
 2013/07/26 11:20:18 354,98  12,71  2188  6099
 2013/07/26 11:21:02 352,12   8,95  2460  6099
 2013/07/26 11:21:46 349,92   5,65  2738  6099
 2013/07/26 11:22:29 348,19   2,69  3022  6099
 2013/07/26 11:23:13 346,80  -0,00  3308  6099

 Orbit 3424
----------------------------------------------
 Time                  Az      El  Range Footp
----------------------------------------------
 2013/07/26 12:48:07 184,94   0,00  3293  6084
 2013/07/26 12:48:51 186,74   2,69  3009  6084
 2013/07/26 12:49:35 188,90   5,64  2728  6085
 2013/07/26 12:50:20 191,54   8,93  2452  6086
 2013/07/26 12:51:04 194,89  12,66  2183  6087
 2013/07/26 12:51:49 199,24  16,96  1927  6088
 2013/07/26 12:52:33 205,13  21,93  1687  6090
 2013/07/26 12:53:17 213,40  27,61  1475  6091
 2013/07/26 12:54:02 225,32  33,64  1302  6092
 2013/07/26 12:54:46 242,21  38,80  1187  6093
 2013/07/26 12:55:31 263,41  40,85  1149  6094
 2013/07/26 12:56:15 284,42  38,53  1194  6095
 2013/07/26 12:57:00 300,94  33,28  1313  6096
 2013/07/26 12:57:44 312,56  27,26  1489  6097
 2013/07/26 12:58:28 320,64  21,65  1704  6098
 2013/07/26 12:59:13 326,42  16,75  1944  6098
 2013/07/26 12:59:57 330,73  12,51  2201  6099
 2013/07/26 13:00:42 334,06   8,83  2470  6099
 2013/07/26 13:01:26 336,71   5,57  2745  6099
 2013/07/26 13:02:10 338,89   2,66  3025  6099
 2013/07/26 13:02:55 340,73  -0,00  3308  6099

 Orbit 3425
----------------------------------------------
 Time                  Az      El  Range Footp
----------------------------------------------
 2013/07/26 14:31:28 241,08   0,00  3298  6087
 2013/07/26 14:31:59 244,36   1,11  3178  6087
 2013/07/26 14:32:29 247,87   2,17  3067  6088
 2013/07/26 14:32:59 251,64   3,19  2965  6089
 2013/07/26 14:33:30 255,66   4,13  2874  6090
 2013/07/26 14:34:00 259,94   4,98  2794  6091
 2013/07/26 14:34:31 264,44   5,72  2728  6091
 2013/07/26 14:35:01 269,16   6,32  2675  6092
 2013/07/26 14:35:31 274,04   6,77  2637  6093
 2013/07/26 14:36:02 279,05   7,04  2614  6094
 2013/07/26 14:36:32 284,11   7,13  2607  6094
 2013/07/26 14:37:02 289,17   7,03  2616  6095
 2013/07/26 14:37:33 294,16   6,74  2640  6096
 2013/07/26 14:38:03 299,03   6,29  2680  6096
 2013/07/26 14:38:34 303,72   5,68  2735  6097
 2013/07/26 14:39:04 308,20   4,94  2803  6098
 2013/07/26 14:39:34 312,45   4,09  2883  6098
 2013/07/26 14:40:05 316,45   3,15  2975  6098
 2013/07/26 14:40:35 320,20   2,15  3077  6099
 2013/07/26 14:41:05 323,70   1,09  3189  6099

 Orbit 3430
----------------------------------------------
 Time                  Az      El  Range Footp
----------------------------------------------
 2013/07/26 23:14:25  32,43  -0,00  3302  6088
 2013/07/26 23:14:56  35,71   1,14  3176  6086
 2013/07/26 23:15:27  39,24   2,25  3058  6085
 2013/07/26 23:15:58  43,04   3,31  2950  6083
 2013/07/26 23:16:29  47,11   4,30  2853  6082
 2013/07/26 23:17:00  51,45   5,21  2767  6080
 2013/07/26 23:17:31  56,06   6,00  2694  6079
 2013/07/26 23:18:01  60,89   6,65  2636  6077
 2013/07/26 23:18:32  65,93   7,15  2593  6075
 2013/07/26 23:19:03  71,11   7,45  2566  6073
 2013/07/26 23:19:34  76,36   7,56  2556  6071
 2013/07/26 23:20:05  81,63   7,47  2562  6070
 2013/07/26 23:20:36  86,83   7,18  2586  6068
 2013/07/26 23:21:07  91,90   6,70  2625  6066
 2013/07/26 23:21:38  96,78   6,05  2681  6064
 2013/07/26 23:22:09 101,44   5,26  2751  6062
 2013/07/26 23:22:40 105,83   4,35  2834  6061
 2013/07/26 23:23:10 109,95   3,35  2930  6059
 2013/07/26 23:23:41 113,80   2,28  3037  6057
 2013/07/26 23:24:12 117,37   1,15  3153  6056

 Orbit 3431
----------------------------------------------
 Time                  Az      El  Range Footp
----------------------------------------------
 2013/07/27 00:53:09  19,04   0,00  3303  6093
 2013/07/27 00:53:54  20,77   2,67  3019  6091
 2013/07/27 00:54:38  22,83   5,59  2737  6089
 2013/07/27 00:55:22  25,34   8,86  2459  6087
 2013/07/27 00:56:07  28,49  12,58  2189  6085
 2013/07/27 00:56:51  32,59  16,88  1928  6083
 2013/07/27 00:57:35  38,13  21,91  1684  6081
 2013/07/27 00:58:20  45,95  27,76  1464  6078
 2013/07/27 00:59:04  57,45  34,18  1282  6076
 2013/07/27 00:59:48  74,31  40,00  1156  6073
 2013/07/27 01:00:33  96,47  42,72  1107  6071
 2013/07/27 01:01:17 119,07  40,54  1144  6068
 2013/07/27 01:02:01 136,71  34,90  1260  6065
 2013/07/27 01:02:45 148,80  28,41  1436  6063
 2013/07/27 01:03:30 157,00  22,42  1652  6060
 2013/07/27 01:04:14 162,75  17,25  1894  6058
 2013/07/27 01:04:58 166,97  12,84  2153  6056
 2013/07/27 01:05:43 170,18   9,03  2424  6053
 2013/07/27 01:06:27 172,72   5,69  2702  6051
 2013/07/27 01:07:11 174,77   2,71  2984  6049

 Orbit 3432
----------------------------------------------
 Time                  Az      El  Range Footp
----------------------------------------------
 2013/07/27 02:32:51  13,05   0,00  3304  6095
 2013/07/27 02:33:35  11,58   2,65  3022  6093
 2013/07/27 02:34:19   9,75   5,56  2742  6092
 2013/07/27 02:35:02   7,44   8,79  2467  6090
 2013/07/27 02:35:46   4,46  12,45  2199  6088
 2013/07/27 02:36:29   0,49  16,66  1942  6086
 2013/07/27 02:37:13 355,04  21,52  1702  6084
 2013/07/27 02:37:56 347,30  27,08  1488  6082
 2013/07/27 02:38:40 336,04  33,04  1312  6080
 2013/07/27 02:39:24 319,94  38,25  1192  6077
 2013/07/27 02:40:07 299,38  40,56  1146  6075
 2013/07/27 02:40:51 278,58  38,56  1184  6072
 2013/07/27 02:41:34 261,99  33,47  1297  6070
 2013/07/27 02:42:18 250,33  27,48  1468  6067
 2013/07/27 02:43:02 242,31  21,83  1679  6065
 2013/07/27 02:43:45 236,67  16,88  1917  6062
 2013/07/27 02:44:29 232,56  12,60  2172  6060
 2013/07/27 02:45:12 229,46   8,89  2439  6057
 2013/07/27 02:45:56 227,06   5,61  2713  6055
 2013/07/27 02:46:40 225,15   2,67  2993  6053
 2013/07/27 02:47:23 223,59  -0,00  3275  6051

 Orbit 3433
----------------------------------------------
 Time                  Az      El  Range Footp
----------------------------------------------
 2013/07/27 04:12:46   9,99   0,00  3305  6096
 2013/07/27 04:13:20   6,92   1,56  3136  6095
 2013/07/27 04:13:54   3,49   3,11  2976  6094
 2013/07/27 04:14:28 359,65   4,65  2826  6093
 2013/07/27 04:15:02 355,37   6,15  2689  6092
 2013/07/27 04:15:36 350,61   7,56  2567  6091
 2013/07/27 04:16:10 345,36   8,85  2462  6089
 2013/07/27 04:16:44 339,64   9,94  2377  6088
 2013/07/27 04:17:18 333,51  10,79  2314  6086
 2013/07/27 04:17:52 327,07  11,33  2274  6085
 2013/07/27 04:18:27 320,45  11,52  2260  6083
 2013/07/27 04:19:01 313,82  11,34  2272  6081
 2013/07/27 04:19:35 307,35  10,81  2308  6079
 2013/07/27 04:20:09 301,19   9,97  2369  6077
 2013/07/27 04:20:43 295,42   8,88  2452  6075
 2013/07/27 04:21:17 290,13   7,59  2555  6074
 2013/07/27 04:21:51 285,31   6,17  2675  6072
 2013/07/27 04:22:25 280,97   4,67  2810  6070
 2013/07/27 04:22:59 277,08   3,13  2959  6068
 2013/07/27 04:23:33 273,60   1,56  3117  6066
 2013/07/27 04:24:07 270,47   0,00  3285  6064

 Orbit 3436
----------------------------------------------
 Time                  Az      El  Range Footp
----------------------------------------------
 2013/07/27 09:04:20  77,54   0,00  3304  6092
 2013/07/27 09:04:51  74,44   1,25  3169  6093
 2013/07/27 09:05:21  71,07   2,47  3042  6094
 2013/07/27 09:05:52  67,39   3,64  2925  6095
 2013/07/27 09:06:23  63,40   4,75  2819  6095
 2013/07/27 09:06:54  59,10   5,76  2727  6096
 2013/07/27 09:07:25  54,50   6,65  2648  6096
 2013/07/27 09:07:55  49,63   7,39  2586  6097
 2013/07/27 09:08:26  44,52   7,94  2540  6097
 2013/07/27 09:08:57  39,25   8,29  2512  6098
 2013/07/27 09:09:28  33,89   8,41  2503  6098
 2013/07/27 09:09:59  28,54   8,29  2512  6098
 2013/07/27 09:10:29  23,27   7,95  2540  6098
 2013/07/27 09:11:00  18,16   7,39  2586  6098
 2013/07/27 09:11:31  13,29   6,65  2649  6098
 2013/07/27 09:12:02   8,69   5,76  2727  6098
 2013/07/27 09:12:33   4,40   4,75  2820  6098
 2013/07/27 09:13:03   0,42   3,64  2926  6098
 2013/07/27 09:13:34 356,75   2,46  3043  6097
 2013/07/27 09:14:05 353,38   1,24  3170  6097

 Orbit 3437
----------------------------------------------
 Time                  Az      El  Range Footp
----------------------------------------------
 2013/07/27 10:40:28 124,63   0,00  3297  6085
 2013/07/27 10:41:10 122,45   2,45  3036  6086
 2013/07/27 10:41:52 119,83   5,09  2781  6087
 2013/07/27 10:42:34 116,64   7,96  2533  6088
 2013/07/27 10:43:16 112,69  11,08  2295  6089
 2013/07/27 10:43:58 107,71  14,47  2072  6091
 2013/07/27 10:44:40 101,35  18,11  1869  6092
 2013/07/27 10:45:22  93,19  21,84  1694  6093
 2013/07/27 10:46:05  82,82  25,30  1556  6094
 2013/07/27 10:46:47  70,21  27,87  1468  6095
 2013/07/27 10:47:29  56,06  28,83  1438  6096
 2013/07/27 10:48:11  41,94  27,85  1469  6096
 2013/07/27 10:48:53  29,37  25,26  1559  6097
 2013/07/27 10:49:35  19,06  21,80  1697  6098
 2013/07/27 10:50:17  10,95  18,07  1873  6098
 2013/07/27 10:50:59   4,64  14,45  2077  6098
 2013/07/27 10:51:41 359,71  11,06  2301  6098
 2013/07/27 10:52:23 355,80   7,95  2540  6098
 2013/07/27 10:53:05 352,66   5,09  2788  6098
 2013/07/27 10:53:47 350,09   2,45  3045  6098
 2013/07/27 10:54:29 347,97   0,00  3306  6097

 Orbit 3438
----------------------------------------------
 Time                  Az      El  Range Footp
----------------------------------------------
 2013/07/27 12:19:10 171,07   0,00  3292  6083
 2013/07/27 12:19:55 171,92   2,86  2991  6084
 2013/07/27 12:20:41 172,94   6,04  2692  6085
 2013/07/27 12:21:26 174,20   9,67  2395  6086
 2013/07/27 12:22:11 175,82  13,92  2102  6087
 2013/07/27 12:22:57 177,99  19,07  1817  6088
 2013/07/27 12:23:42 181,11  25,54  1545  6089
 2013/07/27 12:24:27 186,03  33,95  1293  6090
 2013/07/27 12:25:13 194,92  44,97  1079  6091
 2013/07/27 12:25:58 214,41  57,95   928  6092
 2013/07/27 12:26:43 258,35  65,32   875  6093
 2013/07/27 12:27:29 300,85  57,24   935  6094
 2013/07/27 12:28:14 319,37  44,30  1091  6095
 2013/07/27 12:29:00 327,94  33,47  1308  6096
 2013/07/27 12:29:45 332,74  25,22  1561  6097
 2013/07/27 12:30:30 335,82  18,85  1834  6098
 2013/07/27 12:31:16 337,99  13,77  2119  6098
 2013/07/27 12:32:01 339,62   9,57  2411  6098
 2013/07/27 12:32:46 340,91   5,98  2708  6098
 2013/07/27 12:33:32 341,98   2,83  3007  6098
 2013/07/27 12:34:17 342,88  -0,00  3307  6098

 Orbit 3439
----------------------------------------------
 Time                  Az      El  Range Footp
----------------------------------------------
 2013/07/27 14:01:12 222,79   0,00  3295  6084
 2013/07/27 14:01:48 226,11   1,70  3113  6085
 2013/07/27 14:02:25 229,84   3,41  2939  6086
 2013/07/27 14:03:02 234,02   5,13  2777  6087
 2013/07/27 14:03:39 238,71   6,81  2628  6088
 2013/07/27 14:04:15 243,95   8,43  2495  6088
 2013/07/27 14:04:52 249,77   9,91  2380  6089
 2013/07/27 14:05:29 256,16  11,19  2287  6090
 2013/07/27 14:06:06 263,07  12,19  2219  6091
 2013/07/27 14:06:42 270,36  12,82  2178  6092
 2013/07/27 14:07:19 277,85  13,02  2165  6093
 2013/07/27 14:07:56 285,33  12,79  2181  6094
 2013/07/27 14:08:32 292,59  12,13  2225  6095
 2013/07/27 14:09:09 299,45  11,12  2296  6096
 2013/07/27 14:09:46 305,79   9,83  2391  6096
 2013/07/27 14:10:23 311,56   8,35  2507  6097
 2013/07/27 14:10:59 316,76   6,74  2641  6097
 2013/07/27 14:11:36 321,41   5,07  2791  6098
 2013/07/27 14:12:13 325,56   3,37  2953  6098
 2013/07/27 14:12:50 329,27   1,67  3126  6098
 2013/07/27 14:13:26 332,60  -0,00  3308  6098

 Orbit 3445
----------------------------------------------
 Time                  Az      El  Range Footp
----------------------------------------------
 2013/07/28 00:24:35  21,66  -0,00  3303  6091
 2013/07/28 00:25:18  24,20   2,37  3048  6089
 2013/07/28 00:26:00  27,18   4,91  2799  6088
 2013/07/28 00:26:42  30,73   7,65  2557  6086
 2013/07/28 00:27:25  35,02  10,62  2325  6084
 2013/07/28 00:28:07  40,30  13,81  2107  6081
 2013/07/28 00:28:50  46,87  17,20  1910  6079
 2013/07/28 00:29:32  55,10  20,63  1739  6077
 2013/07/28 00:30:14  65,30  23,79  1604  6075
 2013/07/28 00:30:57  77,51  26,14  1516  6072
 2013/07/28 00:31:39  91,10  27,10  1482  6070
 2013/07/28 00:32:21 104,80  26,34  1506  6067
 2013/07/28 00:33:04 117,26  24,11  1587  6065
 2013/07/28 00:33:46 127,77  20,98  1715  6062
 2013/07/28 00:34:29 136,27  17,52  1881  6060
 2013/07/28 00:35:11 143,04  14,09  2076  6058
 2013/07/28 00:35:53 148,46  10,83  2291  6056
 2013/07/28 00:36:36 152,85   7,80  2522  6053
 2013/07/28 00:37:18 156,45   5,01  2765  6051
 2013/07/28 00:38:00 159,46   2,42  3015  6050

 Orbit 3446
----------------------------------------------
 Time                  Az      El  Range Footp
----------------------------------------------
 2013/07/28 02:04:08  14,42   0,00  3303  6093
 2013/07/28 02:04:53  13,80   2,81  3005  6092
 2013/07/28 02:05:38  13,00   5,93  2707  6090
 2013/07/28 02:06:23  11,94   9,47  2413  6088
 2013/07/28 02:07:08  10,50  13,62  2122  6087
 2013/07/28 02:07:53   8,46  18,60  1839  6084
 2013/07/28 02:08:37   5,43  24,81  1568  6082
 2013/07/28 02:09:22   0,55  32,80  1318  6080
 2013/07/28 02:10:07 351,77  43,13  1103  6078
 2013/07/28 02:10:52 333,39  55,15   948  6075
 2013/07/28 02:11:37 294,83  62,51   886  6073
 2013/07/28 02:12:21 254,34  56,24   936  6070
 2013/07/28 02:13:06 234,40  44,19  1082  6067
 2013/07/28 02:13:51 225,00  33,57  1292  6065
 2013/07/28 02:14:36 219,83  25,33  1539  6062
 2013/07/28 02:15:21 216,64  18,94  1809  6060
